{
  "moscow": [
    {
      "id": "sample:msk:1",
      "name": "ГМИИ им. Пушкина",
      "lat": 55.7472,
      "lon": 37.6050,
      "category": "museum",
      "description": "Один из крупнейших художественных музеев России с сильной коллекцией европейского искусства.",
      "photo_url": "https://upload.wikimedia.org/wikipedia/commons/thumb/3/34/Pushkin_Museum_of_Fine_Arts.jpg/640px-Pushkin_Museum_of_Fine_Arts.jpg",
      "wiki_url": "https://ru.wikipedia.org/wiki/%D0%93%D0%9C%D0%98%D0%98_%D0%B8%D0%BC%D0%B5%D0%BD%D0%B8_%D0%90._%D0%A1._%D0%9F%D1%83%D1%88%D0%BA%D0%B8%D0%BD%D0%B0",
      "tags": {"opening_hours": "Tu-Su 11:00-20:00", "price_level": "medium", "quiet": true}
    },
    {
      "id": "sample:msk:2",
      "name": "Парк Горького",
      "lat": 55.7308,
      "lon": 37.6010,
      "category": "park",
      "description": "Большой городской парк с набережной, велодорожками и открытыми зонами отдыха.",
      "photo_url": "https://upload.wikimedia.org/wikipedia/commons/thumb/4/40/Gorky_Park_Moscow.jpg/640px-Gorky_Park_Moscow.jpg",
      "wiki_url": "https://ru.wikipedia.org/wiki/%D0%9F%D0%B0%D1%80%D0%BA_%D0%93%D0%BE%D1%80%D1%8C%D0%BA%D0%BE%D0%B3%D0%BE_(%D0%9C%D0%BE%D1%81%D0%BA%D0%B2%D0%B0)",
      "tags": {"opening_hours": "24/7", "price_level": "free", "quiet": false}
    },
    {
      "id": "sample:msk:3",
      "name": "Кофемания на Остоженке",
      "lat": 55.7436,
      "lon": 37.6015,
      "category": "cafe",
      "description": "Популярное кафе в центре с завтраками и specialty-кофе.",
      "photo_url": "https://upload.wikimedia.org/wikipedia/commons/thumb/0/04/Coffee_cup_icon.svg/512px-Coffee_cup_icon.svg.png",
      "wiki_url": "",
      "tags": {"opening_hours": "08:00-23:00", "price_level": "high", "quiet": true}
    },
    {
      "id": "sample:msk:4",
      "name": "Зарядье",
      "lat": 55.7517,
      "lon": 37.6289,
      "category": "park",
      "tags": {"opening_hours": "24/7", "price_level": "free", "quiet": false}
    },
    {
      "id": "sample:msk:5",
      "name": "Третьяковская галерея",
      "lat": 55.7414,
      "lon": 37.6208,
      "category": "museum",
      "tags": {"opening_hours": "Tu-Su 10:00-18:00", "price_level": "medium", "quiet": true}
    },
    {
      "id": "sample:msk:6",
      "name": "Кофе Культ",
      "lat": 55.7580,
      "lon": 37.6155,
      "category": "cafe",
      "tags": {"opening_hours": "09:00-22:00", "price_level": "low", "quiet": true}
    },
    {
      "id": "sample:msk:7",
      "name": "Музеон",
      "lat": 55.7346,
      "lon": 37.6060,
      "category": "park",
      "tags": {"opening_hours": "24/7", "price_level": "free", "quiet": true}
    },
    {
      "id": "sample:msk:8",
      "name": "Музей Москвы",
      "lat": 55.7348,
      "lon": 37.6035,
      "category": "museum",
      "tags": {"opening_hours": "Tu-Su 11:00-21:00", "price_level": "medium", "quiet": true}
    },
    {
      "id": "sample:msk:9",
      "name": "Патриаршие пруды",
      "lat": 55.7653,
      "lon": 37.5964,
      "category": "park",
      "tags": {"opening_hours": "24/7", "price_level": "free", "quiet": true}
    },
    {
      "id": "sample:msk:10",
      "name": "House Cafe",
      "lat": 55.7510,
      "lon": 37.6049,
      "category": "cafe",
      "tags": {"opening_hours": "08:00-22:00", "price_level": "low", "quiet": false}
    },
    {
      "id": "sample:msk:11",
      "name": "ВДНХ павильон Космос",
      "lat": 55.8289,
      "lon": 37.6374,
      "category": "museum",
      "tags": {"opening_hours": "10:00-20:00", "price_level": "medium", "quiet": false}
    },
    {
      "id": "sample:msk:12",
      "name": "Смотровая Воробьёвы горы",
      "lat": 55.7101,
      "lon": 37.5532,
      "category": "viewpoint",
      "tags": {"opening_hours": "24/7", "price_level": "free", "quiet": false}
    }
  ],
  "saint petersburg": [
    {
      "id": "sample:spb:1",
      "name": "Эрмитаж",
      "lat": 59.9398,
      "lon": 30.3146,
      "category": "museum",
      "description": "Один из крупнейших музеев мира с коллекцией от античности до модерна.",
      "photo_url": "https://upload.wikimedia.org/wikipedia/commons/thumb/4/47/Hermitage_Museum.jpg/640px-Hermitage_Museum.jpg",
      "wiki_url": "https://ru.wikipedia.org/wiki/%D0%AD%D1%80%D0%BC%D0%B8%D1%82%D0%B0%D0%B6",
      "tags": {"opening_hours": "Tue-Sun 11:00-18:00", "price_level": "high", "quiet": false}
    },
    {
      "id": "sample:spb:2",
      "name": "Летний сад",
      "lat": 59.9496,
      "lon": 30.3412,
      "category": "park",
      "description": "Исторический сад в центре Петербурга с аллеями и скульптурами.",
      "photo_url": "https://upload.wikimedia.org/wikipedia/commons/thumb/f/f4/Summer_Garden_SPB.jpg/640px-Summer_Garden_SPB.jpg",
      "wiki_url": "https://ru.wikipedia.org/wiki/%D0%9B%D0%B5%D1%82%D0%BD%D0%B8%D0%B9_%D1%81%D0%B0%D0%B4",
      "tags": {"opening_hours": "10:00-22:00", "price_level": "free", "quiet": true}
    },
    {
      "id": "sample:spb:3",
      "name": "Skuratov Coffee",
      "lat": 59.9340,
      "lon": 30.3360,
      "category": "cafe",
      "description": "Кофейня в центральной части города, удобная для короткой остановки.",
      "photo_url": "https://upload.wikimedia.org/wikipedia/commons/thumb/0/04/Coffee_cup_icon.svg/512px-Coffee_cup_icon.svg.png",
      "wiki_url": "",
      "tags": {"opening_hours": "08:00-22:00", "price_level": "medium", "quiet": true}
    }
  ],
  "riga": [
    {
      "id": "sample:riga:1",
      "name": "Latvian National Museum of Art",
      "lat": 56.9555,
      "lon": 24.1139,
      "category": "museum",
      "description": "Главный художественный музей Латвии с богатой коллекцией балтийского искусства.",
      "photo_url": "https://upload.wikimedia.org/wikipedia/commons/thumb/5/5f/Latvian_National_Museum_of_Art.jpg/640px-Latvian_National_Museum_of_Art.jpg",
      "wiki_url": "https://en.wikipedia.org/wiki/Latvian_National_Museum_of_Art",
      "tags": {"opening_hours": "10:00-18:00", "price_level": "medium", "quiet": true}
    },
    {
      "id": "sample:riga:2",
      "name": "Bastejkalna parks",
      "lat": 56.9526,
      "lon": 24.1125,
      "category": "park",
      "description": "Центральный парк Риги рядом со Старым городом и каналом.",
      "photo_url": "https://upload.wikimedia.org/wikipedia/commons/thumb/3/33/Bastejkalns_Park.jpg/640px-Bastejkalns_Park.jpg",
      "wiki_url": "https://en.wikipedia.org/wiki/Bastejkalns",
      "tags": {"opening_hours": "24/7", "price_level": "free", "quiet": true}
    },
    {
      "id": "sample:riga:3",
      "name": "Rocket Bean Roastery",
      "lat": 56.9516,
      "lon": 24.1069,
      "category": "cafe",
      "description": "Известная рижская кофейня с обжаркой зерна и спокойной атмосферой.",
      "photo_url": "https://upload.wikimedia.org/wikipedia/commons/thumb/0/04/Coffee_cup_icon.svg/512px-Coffee_cup_icon.svg.png",
      "wiki_url": "",
      "tags": {"opening_hours": "08:00-21:00", "price_level": "medium", "quiet": true}
    }
  ]
}
